[
    {
        "name": "Walmart Supercenter",
        "brand": "Walmart",
        "type": "node",
        "address": {
            "streetAddress": "2500 South Kirkman Road",
            "city": "Orlando",
            "state": "FL",
            "zip": "32811"
        },
        "website": "https://www.walmart.com/store/1220-orlando-fl",
        "phone": "+1-407-290-6977",
        "latitude": 28.5153893,
        "longitude": -81.4626163
    },
    {
        "name": "Walmart Supercenter",
        "brand": "Walmart",
        "type": "node",
        "address": {
            "streetAddress": "605 Saint James Avenue",
            "city": "Goose Creek",
            "state": "SC",
            "zip": "29445"
        },
        "website": "https://www.walmart.com/store/2928-goose-creek-sc",
        "phone": "+1 843-553-5421",
        "latitude": 33.033723,
        "longitude": -80.064175
    },
    {
        "name": "Walmart Supercenter",
        "brand": "Walmart",
        "type": "node",
        "address": {
            "streetAddress": "1002 North Spence Avenue",
            "city": "Goldsboro",
            "state": "NC",
            "zip": "27534"
        },
        "website": "https://www.walmart.com/store/1236-goldsboro-nc",
        "phone": "+1 919-778-3324",
        "latitude": 35.3863264,
        "longitude": -77.9457881
    },
    {
        "name": "Walmart Supercenter",
        "brand": "Walmart",
        "type": "node",
        "address": {
            "streetAddress": "1317 North Main Street",
            "city": "Summerville",
            "state": "SC",
            "zip": "29483"
        },
        "website": "https://www.walmart.com/store/1037-summerville-sc",
        "phone": "+1 843-821-1991",
        "latitude": 33.0352813,
        "longitude": -80.1535747
    },
    {
        "name": "Walmart Supercenter",
        "brand": "Walmart",
        "type": "node",
        "address": {
            "streetAddress": "2701 East Fletcher Avenue",
            "city": "Tampa",
            "state": "FL",
            "zip": "33612"
        },
        "website": "https://www.walmart.com/store/2627-tampa-fl",
        "phone": "+1 813-558-0994",
        "latitude": 28.0682195,
        "longitude": -82.4282157
    },
    {
        "name": "Walmart Supercenter",
        "brand": "Walmart",
        "type": "node",
        "address": {
            "streetAddress": "2000 US Highway 181",
            "city": "Portland",
            "state": "TX",
            "zip": "78374"
        },
        "website": "https://www.walmart.com/store/5460-portland-tx",
        "phone": "+1 361-643-5342",
        "latitude": 27.8943821,
        "longitude": -97.305533
    },
    {
        "name": "Walmart Supercenter",
        "brand": "Walmart",
        "type": "node",
        "address": {
            "streetAddress": "8101 South John Young Parkway",
            "city": "Orlando",
            "state": "FL",
            "zip": "32819"
        },
        "website": "https://www.walmart.com/store/908-orlando-fl",
        "phone": "+1-407-354-5665",
        "latitude": 28.4476066,
        "longitude": -81.4245731
    },
    {
        "name": "Walmart Supercenter",
        "brand": "Walmart",
        "type": "node",
        "address": {
            "streetAddress": "5200 Van Buren Boulevard",
            "city": "Riverside",
            "state": "CA",
            "zip": "92503"
        },
        "website": "https://www.walmart.com/store/2028-riverside-ca",
        "phone": "+1 951-689-4595",
        "latitude": 33.9371231,
        "longitude": -117.4553945
    },
    {
        "name": "Walmart Supercenter",
        "brand": "Walmart",
        "type": "node",
        "address": {
            "streetAddress": "5991 South Goldenrod Road",
            "city": "Orlando",
            "state": "FL",
            "zip": "32822"
        },
        "website": "https://www.walmart.com/store/3782-orlando-fl",
        "phone": "+1-407-382-8880",
        "latitude": 28.4738291,
        "longitude": -81.2869368
    },
    {
        "name": "Walmart Supercenter",
        "brand": "Walmart",
        "type": "node",
        "address": {
            "streetAddress": "350 Robert Smalls Parkway",
            "city": "Beaufort",
            "state": "SC",
            "zip": "29906"
        },
        "website": "https://www.walmart.com/store/1383-beaufort-sc",
        "phone": "+1 843-522-8221",
        "latitude": 32.4252362,
        "longitude": -80.7339771
    },
    {
        "name": "Walmart Supercenter",
        "brand": "Walmart",
        "type": "node",
        "address": {
            "streetAddress": "230 North Beltline Drive",
            "city": "Florence",
            "state": "SC",
            "zip": "29501"
        },
        "website": "https://www.walmart.com/store/630-florence-sc",
        "phone": "+1 843-664-2020",
        "latitude": 34.1932716,
        "longitude": -79.821662
    },
    {
        "name": "Walmart Supercenter",
        "brand": "Walmart",
        "type": "node",
        "address": {
            "streetAddress": "2001 North Rose Avenue",
            "city": "Oxnard",
            "state": "CA",
            "zip": "93036"
        },
        "website": "https://www.walmart.com/store/2032-oxnard-ca",
        "phone": "+1 805-981-4884",
        "latitude": 34.2200752,
        "longitude": -119.1615129
    },
    {
        "name": "Walmart Supercenter",
        "brand": "Walmart",
        "type": "node",
        "address": {
            "streetAddress": "1900 South Jefferson Street",
            "city": "Perry",
            "state": "FL",
            "zip": "32348"
        },
        "website": "https://www.walmart.com/store/5172-perry-fl",
        "phone": "+1 850-223-4179",
        "latitude": 30.102035,
        "longitude": -83.580081
    },
    {
        "name": "Walmart Supercenter",
        "brand": "Walmart",
        "type": "node",
        "address": {
            "streetAddress": "79295 US Highway 111",
            "city": "La Quinta",
            "state": "CA",
            "zip": "92253"
        },
        "website": "https://www.walmart.com/store/1805-la-quinta-ca",
        "phone": "+1 760-564-3313",
        "latitude": 33.703645,
        "longitude": -116.281073
    },
    {
        "name": "Walmart Supercenter",
        "brand": "Walmart",
        "type": "node",
        "address": {
            "streetAddress": "2144 West Indiantown Road",
            "city": "Jupiter",
            "state": "FL",
            "zip": "33458"
        },
        "website": "https://www.walmart.com/store/2176-jupiter-fl",
        "phone": "+1 561-746-6422",
        "latitude": 26.9327295,
        "longitude": -80.1283861
    },
    {
        "name": "Walmart Supercenter",
        "brand": "Walmart",
        "type": "node",
        "address": {
            "streetAddress": "3875 Mundy Mill Road",
            "city": "Oakwood",
            "state": "GA",
            "zip": "30566"
        },
        "website": "https://www.walmart.com/store/3627-oakwood-ga",
        "phone": "+1 770-535-6543",
        "latitude": 34.2316002,
        "longitude": -83.8745558
    },
    {
        "name": "Walmart Supercenter",
        "brand": "Walmart",
        "type": "node",
        "address": {
            "streetAddress": "16077 Highway 280",
            "city": "Chelsea",
            "state": "AL",
            "zip": "35043"
        },
        "website": "https://www.walmart.com/store/4330-chelsea-al",
        "phone": "+1 205-678-2222",
        "latitude": 33.347786,
        "longitude": -86.619238
    },
    {
        "name": "Walmart Supercenter",
        "brand": "Walmart",
        "type": "node",
        "address": {
            "streetAddress": "698 Shrewsbury Commons Avenue",
            "city": "Shrewsbury",
            "state": "PA",
            "zip": "17361"
        },
        "website": "https://www.walmart.com/store/2519-shrewsbury-pa",
        "phone": "+1 717-235-6363",
        "latitude": 39.7681691,
        "longitude": -76.6681529
    },
    {
        "name": "Walmart Supercenter",
        "brand": "Walmart",
        "type": "node",
        "address": {
            "streetAddress": "3653 South Orlando Drive",
            "city": "Sanford",
            "state": "FL",
            "zip": "32773"
        },
        "website": "https://www.walmart.com/store/857-sanford-fl",
        "phone": "+1 407-321-1371",
        "latitude": 28.7596553,
        "longitude": -81.2817262
    },
    {
        "name": "Walmart Supercenter",
        "brand": "Walmart",
        "type": "node",
        "address": {
            "streetAddress": "979 US Route 1",
            "city": "North Brunswick",
            "state": "NJ",
            "zip": "08902"
        },
        "website": "https://www.walmart.com/store/2003-north-brunswick-nj",
        "phone": "+1 732-545-4499",
        "latitude": 40.4618789,
        "longitude": -74.4663188
    },
    {
        "name": "Walmart Supercenter",
        "brand": "Walmart",
        "type": "node",
        "address": {
            "streetAddress": "1018 Riley Street",
            "city": "Folsom",
            "state": "CA",
            "zip": "95630"
        },
        "website": "https://www.walmart.com/store/1760-folsom-ca",
        "phone": "+1 916-983-1090",
        "latitude": 38.6683603,
        "longitude": -121.1675262
    },
    {
        "name": "Walmart Supercenter",
        "brand": "Walmart",
        "type": "node",
        "address": {
            "streetAddress": "1500 Cornerside Boulevard",
            "city": "Vienna",
            "state": "VA",
            "zip": "22182"
        },
        "website": "https://www.walmart.com/store/5936-vienna-va",
        "phone": "+1 571-623-3300",
        "latitude": 38.9295775,
        "longitude": -77.2452367
    },
    {
        "name": "Walmart Supercenter",
        "brand": "Walmart",
        "type": "node",
        "address": {
            "streetAddress": "2801 East Market Street",
            "city": "York",
            "state": "PA",
            "zip": "17402"
        },
        "website": "https://www.walmart.com/store/1529-york-pa",
        "phone": "+1 717-755-1600",
        "latitude": 39.9778893,
        "longitude": -76.6715255
    },
    {
        "name": "Walmart Supercenter",
        "brand": "Walmart",
        "type": "node",
        "address": {
            "streetAddress": "4780 Hickory Boulevard",
            "city": "Granite Falls",
            "state": "NC",
            "zip": "28630"
        },
        "website": "https://www.walmart.com/store/4410-granite-falls-nc",
        "phone": "+1 828-396-3170",
        "latitude": 35.781341,
        "longitude": -81.394266
    },
    {
        "name": "Walmart Supercenter",
        "brand": "Walmart",
        "type": "node",
        "address": {
            "streetAddress": "904 Cypress Parkway",
            "city": "Kissimmee",
            "state": "FL",
            "zip": "34759"
        },
        "website": "https://www.walmart.com/store/5250-kissimmee-fl",
        "phone": "+1 407-870-1903",
        "latitude": 28.1425609,
        "longitude": -81.4480231
    },
    {
        "name": "Walmart Supercenter",
        "brand": "Walmart",
        "type": "node",
        "address": {
            "streetAddress": "861 County Highway F",
            "city": "Berlin",
            "state": "WI",
            "zip": "54923"
        },
        "website": "https://www.walmart.com/store/1727-berlin-wi",
        "phone": "+1 920-361-1600",
        "latitude": 43.970627,
        "longitude": -88.978984
    },
    {
        "name": "Walmart Supercenter",
        "brand": "Walmart",
        "type": "node",
        "address": {
            "streetAddress": "601 Frank Sottile Boulevard",
            "city": "Kingston",
            "state": "NY",
            "zip": "12401"
        },
        "website": "https://www.walmart.com/store/2504-kingston-ny",
        "phone": "+1 845-336-4159",
        "latitude": 41.972549,
        "longitude": -73.9859342
    },
    {
        "name": "Walmart Supercenter",
        "brand": "Walmart",
        "type": "node",
        "address": {
            "streetAddress": "3105 Dr. Martin Luther King Junior Boulevard",
            "city": "New Bern",
            "state": "NC",
            "zip": "28562"
        },
        "website": "https://www.walmart.com/store/1300-new-bern-nc",
        "phone": "+1 252-637-6699",
        "latitude": 35.1009436,
        "longitude": -77.086643
    },
    {
        "name": "Walmart Supercenter",
        "brand": "Walmart",
        "type": "node",
        "address": {
            "streetAddress": "3250 Sardis Church Road",
            "city": "Buford",
            "state": "GA",
            "zip": "30519"
        },
        "website": "https://www.walmart.com/store/3786-buford-ga",
        "phone": "+1 678-546-6464",
        "latitude": 34.0784401,
        "longitude": -83.9219635
    },
    {
        "name": "Walmart Supercenter",
        "brand": "Walmart",
        "type": "node",
        "address": {
            "streetAddress": "2110 Bells Highway",
            "city": "Walterboro",
            "state": "SC",
            "zip": "29488"
        },
        "website": "https://www.walmart.com/store/1358-walterboro-sc",
        "phone": "+1 843-539-1550",
        "latitude": 32.934348,
        "longitude": -80.6900032
    },
    {
        "name": "Walmart Supercenter",
        "brand": "Walmart",
        "type": "node",
        "address": {
            "streetAddress": "5929 Georgia Avenue Northwest",
            "city": "Washington",
            "state": "DC",
            "zip": "20011"
        },
        "website": "https://www.walmart.com/store/5968-washington-dc",
        "phone": "+1 202-719-3770",
        "latitude": 38.9620325,
        "longitude": -77.0273083
    },
    {
        "name": "Walmart Supercenter",
        "brand": "Walmart",
        "type": "node",
        "address": {
            "streetAddress": "323 South Arlington Street",
            "city": "Salisbury",
            "state": "NC",
            "zip": "28144"
        },
        "website": "https://www.walmart.com/store/1552-salisbury-nc",
        "phone": "+1 704-639-9718",
        "latitude": 35.6551735,
        "longitude": -80.4665361
    },
    {
        "name": "Walmart Supercenter",
        "brand": "Walmart",
        "type": "node",
        "address": {
            "streetAddress": "13490 Beach Boulevard",
            "city": "Jacksonville",
            "state": "FL",
            "zip": "32224"
        },
        "website": "https://www.walmart.com/store/1172-jacksonville-fl",
        "phone": "+1 904-223-0772",
        "latitude": 30.2847567,
        "longitude": -81.4626708
    },
    {
        "name": "Walmart Supercenter",
        "brand": "Walmart",
        "type": "node",
        "address": {
            "streetAddress": "2200 West Danforth Road",
            "city": "Edmond",
            "state": "OK",
            "zip": "73003"
        },
        "website": "https://www.walmart.com/store/2803-edmond-ok",
        "phone": "+1 405-216-0520",
        "latitude": 35.6656209,
        "longitude": -97.5120795
    },
    {
        "name": "Walmart Supercenter",
        "brand": "Walmart",
        "type": "node",
        "address": {
            "streetAddress": "355 Cypress Gardens Boulevard",
            "city": "Winter Haven",
            "state": "FL",
            "zip": "33880"
        },
        "website": "https://www.walmart.com/store/968-winter-haven-fl",
        "phone": "+1 863-299-5527",
        "latitude": 28.0066611,
        "longitude": -81.7220827
    },
    {
        "name": "Walmart Supercenter",
        "brand": "Walmart",
        "type": "node",
        "address": {
            "streetAddress": "2120 US Highway 92 West",
            "city": "Auburndale",
            "state": "FL",
            "zip": "33823"
        },
        "website": "https://www.walmart.com/store/718/auburndale-fl",
        "phone": "+1 863-967-1164",
        "latitude": 28.0600885,
        "longitude": -81.8160547
    },
    {
        "name": "Walmart Supercenter",
        "brand": "Walmart",
        "type": "node",
        "address": {
            "streetAddress": "3100 East 1st Street",
            "city": "Chandler",
            "state": "OK",
            "zip": "74834"
        },
        "website": "https://www.walmart.com/store/387-chandler-ok",
        "phone": "+1 405-258-0541",
        "latitude": 35.7117543,
        "longitude": -96.8420318
    },
    {
        "name": "Walmart Supercenter",
        "brand": "Walmart",
        "type": "node",
        "address": {
            "streetAddress": "2300 West Atlantic Boulevard",
            "city": "Pompano Beach",
            "state": "FL",
            "zip": "33069"
        },
        "website": "https://www.walmart.com/store/2962-pompano-beach-fl",
        "phone": "+1 954-971-7170",
        "latitude": 26.22791,
        "longitude": -80.155019
    },
    {
        "name": "Walmart Supercenter",
        "brand": "Walmart",
        "type": "node",
        "address": {
            "streetAddress": "2551 East Hallandale Beach Boulevard",
            "city": "Hallandale Beach",
            "state": "FL",
            "zip": "33009"
        },
        "website": "https://www.walmart.com/store/1996-hallandale-beach-fl",
        "phone": "+1 954-455-4700",
        "latitude": 25.987873,
        "longitude": -80.123894
    },
    {
        "name": "Walmart Supercenter",
        "brand": "Walmart",
        "type": "node",
        "address": {
            "streetAddress": "990 Missouri Avenue North",
            "city": "Largo",
            "state": "FL",
            "zip": "33770"
        },
        "website": "https://www.walmart.com/store/1712/largo-fl",
        "phone": "+1 727-587-7822",
        "latitude": 27.9264846,
        "longitude": -82.7858843
    },
    {
        "name": "Walmart Supercenter",
        "brand": "Walmart",
        "type": "node",
        "address": {
            "streetAddress": "6435 Bells Ferry Road",
            "city": "Woodstock",
            "state": "GA",
            "zip": "30189"
        },
        "website": "https://www.walmart.com/store/5275-woodstock-ga",
        "phone": "+1 770-926-2606",
        "latitude": 34.1128128,
        "longitude": -84.5844805
    },
    {
        "name": "Walmart Supercenter",
        "brand": "Walmart",
        "type": "node",
        "address": {
            "streetAddress": "1633 Martin Luther King Jr Boulevard",
            "city": "Houma",
            "state": "LA",
            "zip": "70360"
        },
        "website": "https://www.walmart.com/store/542-houma-la",
        "phone": "+1 985-851-6373",
        "latitude": 29.6077578,
        "longitude": -90.75184
    },
    {
        "name": "Walmart Supercenter",
        "brand": "Walmart",
        "type": "node",
        "address": {
            "streetAddress": "3200 Northwest 79th Street",
            "city": "Miami",
            "state": "FL",
            "zip": "33147"
        },
        "website": "https://www.walmart.com/store/4303-miami-fl",
        "phone": "+1 305-913-8439",
        "latitude": 25.843304,
        "longitude": -80.251349
    },
    {
        "name": "Walmart Supercenter",
        "brand": "Walmart",
        "type": "node",
        "address": {
            "streetAddress": "1550 Leucadia Boulevard",
            "city": "Encinitas",
            "state": "CA",
            "zip": "92024"
        },
        "website": "https://www.walmart.com/store/5886-encinitas-ca",
        "phone": "+1 760-704-0243",
        "latitude": 33.0691844,
        "longitude": -117.266312
    },
    {
        "name": "Walmart Supercenter",
        "brand": "Walmart",
        "type": "node",
        "address": {
            "streetAddress": "1001 Warrior Way",
            "city": "Quincy",
            "state": "WV",
            "zip": "25015"
        },
        "website": "https://www.walmart.com/store/4278-quincy-wv",
        "phone": "+1 304-220-3001",
        "latitude": 38.2021649,
        "longitude": -81.5058407
    },
    {
        "name": "Walmart Supercenter",
        "brand": "Walmart",
        "type": "node",
        "address": {
            "streetAddress": "2795 North Road",
            "city": "Orangeburg",
            "state": "SC",
            "zip": "29118"
        },
        "website": "https://www.walmart.com/store/616-orangeburg-sc",
        "phone": "+1-803-533-0645",
        "latitude": 33.5241622,
        "longitude": -80.8910894
    },
    {
        "name": "Walmart Supercenter",
        "brand": "Walmart",
        "type": "node",
        "address": {
            "streetAddress": "168 Obed Plaza",
            "city": "Crossville",
            "state": "TN",
            "zip": "38555"
        },
        "website": "https://www.walmart.com/store/687-crossville-tn",
        "phone": "+1 931-484-9745",
        "latitude": 35.983319,
        "longitude": -85.0356336
    },
    {
        "name": "Walmart Supercenter",
        "brand": "Walmart",
        "type": "node",
        "address": {
            "streetAddress": "3245 Lawrenceville Suwanee Road Northwest",
            "city": "Suwanee",
            "state": "GA",
            "zip": "30024"
        },
        "website": "https://www.walmart.com/store/3462-suwanee-ga",
        "phone": "+1 678-482-5441",
        "latitude": 34.0368709,
        "longitude": -84.0506042
    },
    {
        "name": "Walmart Supercenter",
        "brand": "Walmart",
        "type": "node",
        "address": {
            "streetAddress": "600 Boll Weevil Circle",
            "city": "Enterprise",
            "state": "AL",
            "zip": "36330"
        },
        "website": "https://www.walmart.com/store/734-enterprise-al",
        "phone": "+1 334-347-5353",
        "latitude": 31.3157087,
        "longitude": -85.8265113
    },
    {
        "name": "Walmart Supercenter",
        "brand": "Walmart",
        "type": "node",
        "address": {
            "streetAddress": "34301 Highway 43",
            "city": "Thomasville",
            "state": "AL",
            "zip": "36784"
        },
        "website": "https://www.walmart.com/store/1174-thomasville-al",
        "phone": "+1 334-636-0219",
        "latitude": 31.9396079,
        "longitude": -87.7389141
    },
    {
        "name": "Walmart Supercenter",
        "brand": "Walmart",
        "type": "node",
        "address": {
            "streetAddress": "101 Howland Boulevard",
            "city": "Deltona",
            "state": "FL",
            "zip": "32738"
        },
        "website": "https://www.walmart.com/store/3310-deltona-fl",
        "phone": "+1 407-328-8052",
        "latitude": 28.8697507,
        "longitude": -81.1641711
    },
    {
        "name": "Walmart Supercenter",
        "brand": "Walmart",
        "type": "node",
        "address": {
            "streetAddress": "127 Grand View Boulevard",
            "city": "Madison",
            "state": "MS",
            "zip": "39110"
        },
        "website": "https://www.walmart.com/store/2720-madison-ms",
        "phone": "+1 601-605-9662",
        "latitude": 32.467307,
        "longitude": -90.134679
    },
    {
        "name": "Walmart Supercenter",
        "brand": "Walmart",
        "type": "node",
        "address": {
            "streetAddress": "8000 Town Drive",
            "city": "Raleigh",
            "state": "NC",
            "zip": "27616"
        },
        "website": "https://www.walmart.com/store/4484-raleigh-nc",
        "phone": "+1 919-424-6235",
        "latitude": 35.8697812,
        "longitude": -78.5650742
    },
    {
        "name": "Walmart Supercenter",
        "brand": "Walmart",
        "type": "node",
        "address": {
            "streetAddress": "101 North Congress Avenue",
            "city": "Lake Park",
            "state": "FL",
            "zip": "33403"
        },
        "website": "https://www.walmart.com/store/3348-lake-park-fl",
        "phone": "+1 561-842-8113",
        "latitude": 26.795173,
        "longitude": -80.088336
    },
    {
        "name": "Walmart Supercenter",
        "brand": "Walmart",
        "type": "node",
        "address": {
            "streetAddress": "566 Us Highway 70 West",
            "city": "Havelock",
            "state": "NC",
            "zip": "28532"
        },
        "website": "https://www.walmart.com/store/3825-havelock-nc",
        "phone": "+1 252-444-2055",
        "latitude": 34.9141062,
        "longitude": -76.9364887
    },
    {
        "name": "Walmart Supercenter",
        "brand": "Walmart",
        "type": "node",
        "address": {
            "streetAddress": "1616 West Airline Highway",
            "city": "La Place",
            "state": "LA",
            "zip": "70068"
        },
        "website": "https://www.walmart.com/store/961-la-place-la",
        "phone": "+1 985-652-8994",
        "latitude": 30.0747668,
        "longitude": -90.4981931
    },
    {
        "name": "Walmart Supercenter",
        "brand": "Walmart",
        "type": "node",
        "address": {
            "streetAddress": "1041 Us Highway 27 North",
            "city": "Avon Park",
            "state": "FL",
            "zip": "33825"
        },
        "website": "https://www.walmart.com/store/3887-avon-park-fl",
        "phone": "+1 863-453-4177",
        "latitude": 27.608819,
        "longitude": -81.517586
    },
    {
        "name": "Walmart Supercenter",
        "brand": "Walmart",
        "type": "node",
        "address": {
            "streetAddress": "3615 Marietta Highway",
            "city": "Dallas",
            "state": "GA",
            "zip": "30157"
        },
        "website": "https://www.walmart.com/store/3403-dallas-ga",
        "phone": "+1 770-445-2141",
        "latitude": 33.9351174,
        "longitude": -84.7304552
    },
    {
        "name": "Walmart Supercenter",
        "brand": "Walmart",
        "type": "node",
        "address": {
            "streetAddress": "9885 Collier Boulevard",
            "city": "Naples",
            "state": "FL",
            "zip": "34114"
        },
        "website": "https://www.walmart.com/store/5055-naples-fl",
        "phone": "+1 239-455-1131",
        "latitude": 26.148953,
        "longitude": -81.689142
    },
    {
        "name": "Walmart Supercenter",
        "brand": "Walmart",
        "type": "node",
        "address": {
            "streetAddress": "1725 New Hope Church Road",
            "city": "Raleigh",
            "state": "NC",
            "zip": "27609"
        },
        "website": "https://www.walmart.com/store/2058-raleigh-nc",
        "phone": "+1 919-790-6910",
        "latitude": 35.8371437,
        "longitude": -78.6080842
    },
    {
        "name": "Walmart Supercenter",
        "brand": "Walmart",
        "type": "node",
        "address": {
            "streetAddress": "6830 Normandy Boulevard",
            "city": "Jacksonville",
            "state": "FL",
            "zip": "32205"
        },
        "website": "https://www.walmart.com/store/1083-jacksonville-fl",
        "phone": "+1 904-786-0390",
        "latitude": 30.3016231,
        "longitude": -81.7583761
    },
    {
        "name": "Walmart Supercenter",
        "brand": "Walmart",
        "type": "node",
        "address": {
            "streetAddress": "2015 South Green Avenue",
            "city": "Purcell",
            "state": "OK",
            "zip": "73080"
        },
        "website": "https://www.walmart.com/store/139-purcell-ok",
        "phone": "+1 405-527-5621",
        "latitude": 34.9875394,
        "longitude": -97.3702158
    },
    {
        "name": "Walmart Supercenter",
        "brand": "Walmart",
        "type": "node",
        "address": {
            "streetAddress": "777 Old Willow Avenue",
            "city": "Honesdale",
            "state": "PA",
            "zip": "18431"
        },
        "website": "https://www.walmart.com/store/2480-honesdale-pa",
        "phone": "+1 570-251-9543",
        "latitude": 41.5572729,
        "longitude": -75.2264698
    },
    {
        "name": "Walmart Supercenter",
        "brand": "Walmart",
        "type": "node",
        "address": {
            "streetAddress": "4545 Hypoluxo Road",
            "city": "Lake Worth",
            "state": "FL",
            "zip": "33463"
        },
        "website": "https://www.walmart.com/store/1398-lake-worth-fl",
        "phone": "+1 561-642-6005",
        "latitude": 26.5749218,
        "longitude": -80.1145095
    },
    {
        "name": "Walmart Supercenter",
        "brand": "Walmart",
        "type": "node",
        "address": {
            "streetAddress": " Carretera Ceiba - Humacao",
            "city": "Humacao",
            "state": "PR",
            "zip": "00791"
        },
        "website": "https://www.walmart.com/store/2240-humacao-pr",
        "phone": "+1-787-852-9600",
        "latitude": 18.1412419,
        "longitude": -65.8074197
    },
    {
        "name": "Walmart Supercenter",
        "brand": "Walmart",
        "type": "node",
        "address": {
            "streetAddress": "375 South Main Street",
            "city": "Timberville",
            "state": "VA",
            "zip": "22853"
        },
        "website": "https://www.walmart.com/store/6952-timberville-va",
        "phone": "+1 540-896-0212",
        "latitude": 38.6303755,
        "longitude": -78.7754811
    },
    {
        "name": "Walmart Supercenter",
        "brand": "Walmart",
        "type": "node",
        "address": {
            "streetAddress": "1000 North Wickham Road",
            "city": "Melbourne",
            "state": "FL",
            "zip": "32935"
        },
        "website": "https://www.walmart.com/store/1702-melbourne-fl",
        "phone": "+1 321-242-1601",
        "latitude": 28.122779,
        "longitude": -80.674465
    },
    {
        "name": "Walmart Supercenter",
        "brand": "Walmart",
        "type": "node",
        "address": {
            "streetAddress": "1511 Benvenue Road",
            "city": "Rocky Mount",
            "state": "NC",
            "zip": "27804"
        },
        "website": "https://www.walmart.com/store/1197-rocky-mount-nc",
        "phone": "+1 252-985-2254",
        "latitude": 35.978113,
        "longitude": -77.812272
    },
    {
        "name": "Walmart Supercenter",
        "brand": "Walmart",
        "type": "node",
        "address": {
            "streetAddress": "5556 Sunset Boulevard",
            "city": "Lexington",
            "state": "SC",
            "zip": "29072"
        },
        "website": "https://www.walmart.com/store/881-lexington-sc",
        "phone": "+1 803-808-3740",
        "latitude": 33.9981484,
        "longitude": -81.2247897
    },
    {
        "name": "Walmart Supercenter",
        "brand": "Walmart",
        "type": "node",
        "address": {
            "streetAddress": "180 River Road",
            "city": "Lisbon",
            "state": "CT",
            "zip": "06351"
        },
        "website": "https://www.walmart.com/store/2854-lisbon-ct",
        "phone": "+1 860-376-3254",
        "latitude": 41.5835873,
        "longitude": -71.9897192
    },
    {
        "name": "Walmart Supercenter",
        "brand": "Walmart",
        "type": "node",
        "address": {
            "streetAddress": "6495 Atlanta Highway",
            "city": "Montgomery",
            "state": "AL",
            "zip": "36117"
        },
        "website": "https://www.walmart.com/store/938-montgomery-al",
        "phone": "+1 334-272-0263",
        "latitude": 32.385046,
        "longitude": -86.184915
    },
    {
        "name": "Walmart Supercenter",
        "brand": "Walmart",
        "type": "node",
        "address": {
            "streetAddress": "6586 Ga Highway 40 East",
            "city": "Saint Marys",
            "state": "GA",
            "zip": "31558"
        },
        "website": "https://www.walmart.com/store/836-saint-marys-ga",
        "phone": "+1 912-510-9216",
        "latitude": 30.778436,
        "longitude": -81.618596
    },
    {
        "name": "Walmart Supercenter",
        "brand": "Walmart",
        "type": "node",
        "address": {
            "streetAddress": "2101 South Parrott Avenue",
            "city": "Okeechobee",
            "state": "FL",
            "zip": "34974"
        },
        "website": "https://www.walmart.com/store/814-okeechobee-fl",
        "phone": "+1 863-763-7070",
        "latitude": 27.221482,
        "longitude": -80.827943
    },
    {
        "name": "Walmart Supercenter",
        "brand": "Walmart",
        "type": "node",
        "address": {
            "streetAddress": "750 Academy Drive",
            "city": "Bessemer",
            "state": "AL",
            "zip": "35022"
        },
        "website": "https://www.walmart.com/store/764-bessemer-al",
        "phone": "+1 205-424-5890",
        "latitude": 33.361719,
        "longitude": -87.001921
    },
    {
        "name": "Walmart Supercenter",
        "brand": "Walmart",
        "type": "node",
        "address": {
            "streetAddress": "9248 Parkway East",
            "city": "Birmingham",
            "state": "AL",
            "zip": "35206"
        },
        "website": "https://www.walmart.com/store/762-birmingham-al",
        "phone": "+1 205-833-7676",
        "latitude": 33.590204,
        "longitude": -86.70022
    },
    {
        "name": "Walmart Supercenter",
        "brand": "Walmart",
        "type": "node",
        "address": {
            "streetAddress": "4858 Highway 1",
            "city": "Raceland",
            "state": "LA",
            "zip": "70394"
        },
        "website": "https://www.walmart.com/store/761-raceland-la",
        "phone": "+1 985-532-6936",
        "latitude": 29.691111,
        "longitude": -90.554241
    },
    {
        "name": "Walmart Supercenter",
        "brand": "Walmart",
        "type": "node",
        "address": {
            "streetAddress": "5600 North Henry Boulevard",
            "city": "Stockbridge",
            "state": "GA",
            "zip": "30281"
        },
        "website": "https://www.walmart.com/store/745-stockbridge-ga",
        "phone": "+1 770-389-1709",
        "latitude": 33.553185,
        "longitude": -84.25538
    },
    {
        "name": "Walmart Supercenter",
        "brand": "Walmart",
        "type": "node",
        "address": {
            "streetAddress": "969 Us Highway 80 West",
            "city": "Demopolis",
            "state": "AL",
            "zip": "36732"
        },
        "website": "https://www.walmart.com/store/731-demopolis-al",
        "phone": "+1 334-289-2385",
        "latitude": 32.493003,
        "longitude": -87.849349
    },
    {
        "name": "Walmart Supercenter",
        "brand": "Walmart",
        "type": "node",
        "address": {
            "streetAddress": "41301 Us Highway 280",
            "city": "Sylacauga",
            "state": "AL",
            "zip": "35150"
        },
        "website": "https://www.walmart.com/store/730-sylacauga-al",
        "phone": "+1 256-245-0356",
        "latitude": 33.1757912,
        "longitude": -86.2857733
    },
    {
        "name": "Walmart Supercenter",
        "brand": "Walmart",
        "type": "node",
        "address": {
            "streetAddress": "25 Pembroke Drive",
            "city": "Hilton Head Island",
            "state": "SC",
            "zip": "29926"
        },
        "website": "https://www.walmart.com/store/728/hilton-head%20island-sc/whats-new",
        "phone": "+1-843-681-3011",
        "latitude": 32.211604,
        "longitude": -80.728675
    },
    {
        "name": "Walmart Supercenter",
        "brand": "Walmart",
        "type": "node",
        "address": {
            "streetAddress": "911 North Main Street",
            "city": "Atmore",
            "state": "AL",
            "zip": "36502"
        },
        "website": "https://www.walmart.com/store/7247-atmore-al",
        "phone": "+1 251-368-1403",
        "latitude": 31.0379679,
        "longitude": -87.4951729
    },
    {
        "name": "Walmart Supercenter",
        "brand": "Walmart",
        "type": "node",
        "address": {
            "streetAddress": "265 Sea Island Parkway",
            "city": "Beaufort",
            "state": "SC",
            "zip": "29907"
        },
        "website": "https://www.walmart.com/store/7181-beaufort-sc",
        "phone": "+1 843-489-3216",
        "latitude": 32.4076013,
        "longitude": -80.633018
    },
    {
        "name": "Walmart Supercenter",
        "brand": "Walmart",
        "type": "node",
        "address": {
            "streetAddress": "7631 Gall Boulevard",
            "city": "Zephyrhills",
            "state": "FL",
            "zip": "33541"
        },
        "website": "https://www.walmart.com/store/706-zephyrhills-fl",
        "phone": "+1 813-782-1957",
        "latitude": 28.269612,
        "longitude": -82.191192
    },
    {
        "name": "Walmart Supercenter",
        "brand": "Walmart",
        "type": "node",
        "address": {
            "streetAddress": "4701 Northport Boulevard",
            "city": "Shreveport",
            "state": "LA",
            "zip": "71107-2539"
        },
        "website": "https://www.walmart.com/store/6932-shreveport-la",
        "phone": "+1 318-929-3502",
        "latitude": 32.596094,
        "longitude": -93.838319
    },
    {
        "name": "Walmart Supercenter",
        "brand": "Walmart",
        "type": "node",
        "address": {
            "streetAddress": "1040 Chesterfield Highway",
            "city": "Cheraw",
            "state": "SC",
            "zip": "29520"
        },
        "website": "https://www.walmart.com/store/642-cheraw-sc",
        "phone": "+1 843-537-6381",
        "latitude": 34.701157,
        "longitude": -79.931271
    },
    {
        "name": "Walmart Supercenter",
        "brand": "Walmart",
        "type": "node",
        "address": {
            "streetAddress": "9880 Dorchester Road",
            "city": "Summerville",
            "state": "SC",
            "zip": "29485"
        },
        "website": "https://www.walmart.com/store/628-summerville-sc",
        "phone": "+1 843-871-3303",
        "latitude": 32.950336,
        "longitude": -80.155096
    },
    {
        "name": "Walmart Supercenter",
        "brand": "Walmart",
        "type": "node",
        "address": {
            "streetAddress": "1310 North Fraser Street",
            "city": "Georgetown",
            "state": "SC",
            "zip": "29440"
        },
        "website": "https://www.walmart.com/store/625-georgetown-sc",
        "phone": "+1 843-527-9970",
        "latitude": 33.393724,
        "longitude": -79.286271
    },
    {
        "name": "Walmart Supercenter",
        "brand": "Walmart",
        "type": "node",
        "address": {
            "streetAddress": "12800 Pines Boulevard",
            "city": "Pembroke Pines",
            "state": "FL",
            "zip": "33027"
        },
        "website": "https://www.walmart.com/store/5932-pembroke-pines-fl",
        "phone": "+1 954-378-1542",
        "latitude": 26.0053,
        "longitude": -80.3183
    },
    {
        "name": "Walmart Supercenter",
        "brand": "Walmart",
        "type": "node",
        "address": {
            "streetAddress": "5511 Deep Lake Road",
            "city": "Oviedo",
            "state": "FL",
            "zip": "32765"
        },
        "website": "https://www.walmart.com/store/5894-oviedo-fl",
        "phone": "+1 407-618-5013",
        "latitude": 28.617165,
        "longitude": -81.260129
    },
    {
        "name": "Walmart Supercenter",
        "brand": "Walmart",
        "type": "node",
        "address": {
            "streetAddress": "400 South State Road",
            "city": "Springfield",
            "state": "PA",
            "zip": "19064"
        },
        "website": "https://www.walmart.com/store/5881-springfield-pa",
        "phone": "+1 610-605-3154",
        "latitude": 39.938993,
        "longitude": -75.356285
    },
    {
        "name": "Walmart Supercenter",
        "brand": "Walmart",
        "type": "node",
        "address": {
            "streetAddress": "2709 Church Street",
            "city": "Conway",
            "state": "SC",
            "zip": "29526"
        },
        "website": "https://www.walmart.com/store/586-conway-sc",
        "phone": "+1 843-365-0303",
        "latitude": 33.857892,
        "longitude": -79.091184
    },
    {
        "name": "Walmart Supercenter",
        "brand": "Walmart",
        "type": "node",
        "address": {
            "streetAddress": "8400 Coral Way",
            "city": "Miami",
            "state": "FL",
            "zip": "33155"
        },
        "website": "https://www.walmart.com/store/5854-miami-fl",
        "phone": "+1 305-351-0725",
        "latitude": 25.7460113,
        "longitude": -80.3327903
    },
    {
        "name": "Walmart Supercenter",
        "brand": "Walmart",
        "type": "node",
        "address": {
            "streetAddress": "2200 Holly Springs Parkway",
            "city": "Holly Springs",
            "state": "GA",
            "zip": "30115"
        },
        "website": "https://www.walmart.com/store/5814-holly-springs-ga",
        "phone": "+1 770-213-6519",
        "latitude": 34.185397,
        "longitude": -84.50442
    },
    {
        "name": "Walmart Supercenter",
        "brand": "Walmart",
        "type": "node",
        "address": {
            "streetAddress": " Calle Labra",
            "city": "San Juan",
            "state": "PR",
            "zip": "00907"
        },
        "website": "https://www.walmart.com/store/5803-san-juan-pr",
        "phone": "+1-787-641-5600",
        "latitude": 18.447647,
        "longitude": -66.075933
    },
    {
        "name": "Walmart Supercenter",
        "brand": "Walmart",
        "type": "node",
        "address": {
            "streetAddress": "1936 North Lecanto Highway",
            "city": "Lecanto",
            "state": "FL",
            "zip": "34461"
        },
        "website": "https://www.walmart.com/store/5772-lecanto-fl",
        "phone": "+1 352-228-6000",
        "latitude": 28.891252,
        "longitude": -82.489485
    },
    {
        "name": "Walmart Supercenter",
        "brand": "Walmart",
        "type": "node",
        "address": {
            "streetAddress": "630 Collins Hill Road",
            "city": "Lawrenceville",
            "state": "GA",
            "zip": "30046"
        },
        "website": "https://www.walmart.com/store/548-lawrenceville-ga",
        "phone": "+1 770-995-0102",
        "latitude": 33.971139,
        "longitude": -83.996583
    },
    {
        "name": "Walmart Supercenter",
        "brand": "Walmart",
        "type": "node",
        "address": {
            "streetAddress": "973 Highway 90 East",
            "city": "Morgan City",
            "state": "LA",
            "zip": "70380"
        },
        "website": "https://www.walmart.com/store/540-morgan-city-la",
        "phone": "+1 985-395-2094",
        "latitude": 29.683712,
        "longitude": -91.267157
    },
    {
        "name": "Walmart Supercenter",
        "brand": "Walmart",
        "type": "node",
        "address": {
            "streetAddress": "980 West Parker Street",
            "city": "Baxley",
            "state": "GA",
            "zip": "31513"
        },
        "website": "https://www.walmart.com/store/5392-baxley-ga",
        "phone": "+1 912-367-3117",
        "latitude": 31.786216,
        "longitude": -82.364662
    },
    {
        "name": "Walmart Supercenter",
        "brand": "Walmart",
        "type": "node",
        "address": {
            "streetAddress": "250 Wildcat Drive",
            "city": "Brawley",
            "state": "CA",
            "zip": "92227"
        },
        "website": "https://www.walmart.com/store/5335-brawley-ca",
        "phone": "+1 760-351-0186",
        "latitude": 32.962431,
        "longitude": -115.545833
    },
    {
        "name": "Walmart Supercenter",
        "brand": "Walmart",
        "type": "node",
        "address": {
            "streetAddress": "4375 Belvedere Road",
            "city": "West Palm Beach",
            "state": "FL",
            "zip": "33406"
        },
        "website": "https://www.walmart.com/store/5301/west-palm%20beach-fl/whats-new",
        "phone": "+1-561-242-8889",
        "latitude": 26.693816,
        "longitude": -80.109045
    },
    {
        "name": "Walmart Supercenter",
        "brand": "Walmart",
        "type": "node",
        "address": {
            "streetAddress": "2181 Pelham Parkway",
            "city": "Pelham",
            "state": "AL",
            "zip": "35124"
        },
        "website": "https://www.walmart.com/store/5262-pelham-al",
        "phone": "+1 205-987-0108",
        "latitude": 33.340851,
        "longitude": -86.791181
    },
    {
        "name": "Walmart Supercenter",
        "brand": "Walmart",
        "type": "node",
        "address": {
            "streetAddress": "10470 Twin Cities Road",
            "city": "Galt",
            "state": "CA",
            "zip": "95632"
        },
        "website": "https://www.walmart.com/store/5231-galt-ca",
        "phone": "+1 209-744-1938",
        "latitude": 38.289653,
        "longitude": -121.304762
    },
    {
        "name": "Walmart Supercenter",
        "brand": "Walmart",
        "type": "node",
        "address": {
            "streetAddress": "14215 Fm 2100 Road",
            "city": "Crosby",
            "state": "TX",
            "zip": "77532"
        },
        "website": "https://www.walmart.com/store/522-crosby-tx",
        "phone": "+1 281-328-4836",
        "latitude": 29.894378,
        "longitude": -95.065666
    },
    {
        "name": "Walmart Supercenter",
        "brand": "Walmart",
        "type": "node",
        "address": {
            "streetAddress": "3501 34th Street South",
            "city": "Saint Petersburg",
            "state": "FL",
            "zip": "33711"
        },
        "website": "https://www.walmart.com/store/5218-st-petersburg-fl",
        "phone": "+1 727-906-4647",
        "latitude": 27.736252,
        "longitude": -82.682331
    },
    {
        "name": "Walmart Supercenter",
        "brand": "Walmart",
        "type": "node",
        "address": {
            "streetAddress": "1550 Riverstone Parkway",
            "city": "Canton",
            "state": "GA",
            "zip": "30114"
        },
        "website": "https://www.walmart.com/store/518-canton-ga",
        "phone": "+1 770-479-9891",
        "latitude": 34.255416,
        "longitude": -84.461178
    },
    {
        "name": "Walmart Supercenter",
        "brand": "Walmart",
        "type": "node",
        "address": {
            "streetAddress": "3670 West Oak Street",
            "city": "Jena",
            "state": "LA",
            "zip": "71342"
        },
        "website": "https://www.walmart.com/store/498-jena-la",
        "phone": "+1 318-992-1351",
        "latitude": 31.6927546,
        "longitude": -92.1404735
    },
    {
        "name": "Walmart Supercenter",
        "brand": "Walmart",
        "type": "node",
        "address": {
            "streetAddress": "2500 North Main Street",
            "city": "Altus",
            "state": "OK",
            "zip": "73521"
        },
        "website": "https://www.walmart.com/store/479-altus-ok",
        "phone": "+1 580-482-8189",
        "latitude": 34.664235,
        "longitude": -99.331291
    },
    {
        "name": "Walmart Supercenter",
        "brand": "Walmart",
        "type": "node",
        "address": {
            "streetAddress": "151 Myrtle Ridge Drive",
            "city": "Conway",
            "state": "SC",
            "zip": "29526"
        },
        "website": "https://www.walmart.com/store/4664-conway-sc",
        "phone": "+1-843-234-2040",
        "latitude": 33.777583,
        "longitude": -78.989089
    },
    {
        "name": "Walmart Supercenter",
        "brand": "Walmart",
        "type": "node",
        "address": {
            "streetAddress": "2908 Us Highway 70 West",
            "city": "Goldsboro",
            "state": "NC",
            "zip": "27530"
        },
        "website": "https://www.walmart.com/store/4564-goldsboro-nc",
        "phone": "+1 919-736-7332",
        "latitude": 35.431567,
        "longitude": -78.061712
    },
    {
        "name": "Walmart Supercenter",
        "brand": "Walmart",
        "type": "node",
        "address": {
            "streetAddress": "4200 Salem Road",
            "city": "Covington",
            "state": "GA",
            "zip": "30016"
        },
        "website": "https://www.walmart.com/store/4558-covington-ga",
        "phone": "+1 678-212-3195",
        "latitude": 33.577117,
        "longitude": -83.959197
    },
    {
        "name": "Walmart Supercenter",
        "brand": "Walmart",
        "type": "node",
        "address": {
            "streetAddress": "1007 Red Farmer Drive",
            "city": "Hueytown",
            "state": "AL",
            "zip": "35023"
        },
        "website": "https://www.walmart.com/store/4497-hueytown-al",
        "phone": "+1 205-744-9997",
        "latitude": 33.460574,
        "longitude": -86.96832
    },
    {
        "name": "Walmart Supercenter",
        "brand": "Walmart",
        "type": "node",
        "address": {
            "streetAddress": "1250 Bennettsville Square Highway 9 West",
            "city": "Bennettsville",
            "state": "SC",
            "zip": "29512"
        },
        "website": "https://www.walmart.com/store/4457-bennettsville-sc",
        "phone": "+1 843-479-0002",
        "latitude": 34.638867,
        "longitude": -79.704246
    },
    {
        "name": "Walmart Supercenter",
        "brand": "Walmart",
        "type": "node",
        "address": {
            "streetAddress": "1180 Dutch Fork Road",
            "city": "Irmo",
            "state": "SC",
            "zip": "29063"
        },
        "website": "https://www.walmart.com/store/4440-irmo-sc",
        "phone": "+1 803-781-7775",
        "latitude": 34.127358,
        "longitude": -81.220387
    },
    {
        "name": "Walmart Supercenter",
        "brand": "Walmart",
        "type": "node",
        "address": {
            "streetAddress": "1125 Shreveport Barksdale Highway",
            "city": "Shreveport",
            "state": "LA",
            "zip": "71105"
        },
        "website": "https://www.walmart.com/store/3868-shreveport-la",
        "phone": "+1 318-861-9202",
        "latitude": 32.48368,
        "longitude": -93.705344
    },
    {
        "name": "Walmart Supercenter",
        "brand": "Walmart",
        "type": "node",
        "address": {
            "streetAddress": "1840 South Black Horse Pike",
            "city": "Williamstown",
            "state": "NJ",
            "zip": "08094"
        },
        "website": "https://www.walmart.com/store/3774-williamstown-nj",
        "phone": "+1 856-629-2054",
        "latitude": 39.662379,
        "longitude": -74.961398
    },
    {
        "name": "Walmart Supercenter",
        "brand": "Walmart",
        "type": "node",
        "address": {
            "streetAddress": "1105 Research Center Atlanta Drive Southwest",
            "city": "Atlanta",
            "state": "GA",
            "zip": "30331"
        },
        "website": "https://www.walmart.com/store/3741-atlanta-ga",
        "phone": "+1 404-260-6153",
        "latitude": 33.72837,
        "longitude": -84.507908
    },
    {
        "name": "Walmart Supercenter",
        "brand": "Walmart",
        "type": "node",
        "address": {
            "streetAddress": "2107 Pyramids Village Boulevard",
            "city": "Greensboro",
            "state": "NC",
            "zip": "27405"
        },
        "website": "https://www.walmart.com/store/3658-greensboro-nc",
        "phone": "+1 336-375-5445",
        "latitude": 36.1092,
        "longitude": -79.7569
    },
    {
        "name": "Walmart Supercenter",
        "brand": "Walmart",
        "type": "node",
        "address": {
            "streetAddress": "3250 Big Dalton Avenue",
            "city": "Baldwin Park",
            "state": "CA",
            "zip": "91706"
        },
        "website": "https://www.walmart.com/store/3522-baldwin-park-ca",
        "phone": "+1 626-814-2235",
        "latitude": 34.071943,
        "longitude": -117.963494
    },
    {
        "name": "Walmart Supercenter",
        "brand": "Walmart",
        "type": "node",
        "address": {
            "streetAddress": "3435 Centerville Highway",
            "city": "Snellville",
            "state": "GA",
            "zip": "30039"
        },
        "website": "https://www.walmart.com/store/3389-snellville-ga",
        "phone": "+1 770-972-7572",
        "latitude": 33.807876,
        "longitude": -84.046785
    },
    {
        "name": "Walmart Supercenter",
        "brand": "Walmart",
        "type": "node",
        "address": {
            "streetAddress": "17000 Tamiami Trail",
            "city": "North Port",
            "state": "FL",
            "zip": "34287"
        },
        "website": "https://www.walmart.com/store/3387-north-port-fl",
        "phone": "+1 941-423-5266",
        "latitude": 27.034649,
        "longitude": -82.217003
    },
    {
        "name": "Walmart Supercenter",
        "brand": "Walmart",
        "type": "node",
        "address": {
            "streetAddress": "508 10th Street East",
            "city": "Palmetto",
            "state": "FL",
            "zip": "34221"
        },
        "website": "https://www.walmart.com/store/3370-palmetto-fl",
        "phone": "+1 941-723-2199",
        "latitude": 27.523773,
        "longitude": -82.559178
    },
    {
        "name": "Walmart Supercenter",
        "brand": "Walmart",
        "type": "node",
        "address": {
            "streetAddress": "5935 Memorial Drive",
            "city": "Stone Mountain",
            "state": "GA",
            "zip": "30083"
        },
        "website": "https://www.walmart.com/store/3188-stone-mountain-ga",
        "phone": "+1 404-260-6142",
        "latitude": 33.799259,
        "longitude": -84.195045
    },
    {
        "name": "Walmart Supercenter",
        "brand": "Walmart",
        "type": "node",
        "address": {
            "streetAddress": "4301 Chef Menteur Highway",
            "city": "New Orleans",
            "state": "LA",
            "zip": "70126"
        },
        "website": "https://www.walmart.com/store/3167-new-orleans-la",
        "phone": "+1 504-434-6076",
        "latitude": 30.005604,
        "longitude": -90.037914
    },
    {
        "name": "Walmart Supercenter",
        "brand": "Walmart",
        "type": "node",
        "address": {
            "streetAddress": "4975 Jimmy Carter Boulevard",
            "city": "Norcross",
            "state": "GA",
            "zip": "30093"
        },
        "website": "https://www.walmart.com/store/3067-norcross-ga",
        "phone": "+1 770-225-9882",
        "latitude": 33.894961,
        "longitude": -84.194157
    },
    {
        "name": "Walmart Supercenter",
        "brand": "Walmart",
        "type": "node",
        "address": {
            "streetAddress": "310 Riggs Road Northeast",
            "city": "Washington",
            "state": "DC",
            "zip": "20011"
        },
        "website": "https://www.walmart.com/store/3035-washington-dc",
        "phone": "+1 202-756-4418",
        "latitude": 38.9578188,
        "longitude": -77.0022035
    },
    {
        "name": "Walmart Supercenter",
        "brand": "Walmart",
        "type": "node",
        "address": {
            "streetAddress": "2500 Broward Boulevard",
            "city": "Fort Lauderdale",
            "state": "FL",
            "zip": "33312"
        },
        "website": "https://www.walmart.com/store/2946-fort-lauderdale-fl",
        "phone": "+1 954-453-6538",
        "latitude": 26.119082,
        "longitude": -80.175083
    },
    {
        "name": "Walmart Supercenter",
        "brand": "Walmart",
        "type": "node",
        "address": {
            "streetAddress": "2320 North Haover Pike",
            "city": "Hampstead",
            "state": "MD",
            "zip": "21074"
        },
        "website": "https://www.walmart.com/store/2850-hampstead-md",
        "phone": "+1 410-374-5344",
        "latitude": 39.636036,
        "longitude": -76.869339
    },
    {
        "name": "Walmart Supercenter",
        "brand": "Walmart",
        "type": "node",
        "address": {
            "streetAddress": "926 East Collin Raye Drive",
            "city": "De Queen",
            "state": "AR",
            "zip": "71832"
        },
        "website": "https://www.walmart.com/store/279-de-queen-ar",
        "phone": "+1 870-642-2794",
        "latitude": 34.043471,
        "longitude": -94.319058
    },
    {
        "name": "Walmart Supercenter",
        "brand": "Walmart",
        "type": "node",
        "address": {
            "streetAddress": "1004 West Ocean Boulevard",
            "city": "Los Fresnos",
            "state": "TX",
            "zip": "78566"
        },
        "website": "https://www.walmart.com/store/2765-los-fresnos-tx",
        "phone": "+1 956-233-1742",
        "latitude": 26.074583,
        "longitude": -97.491285
    },
    {
        "name": "Walmart Supercenter",
        "brand": "Walmart",
        "type": "node",
        "address": {
            "streetAddress": "4206 North College Avenue",
            "city": "Jackson",
            "state": "AL",
            "zip": "36545"
        },
        "website": "https://www.walmart.com/store/2760-jackson-al",
        "phone": "+1 251-247-7101",
        "latitude": 31.559638,
        "longitude": -87.875509
    },
    {
        "name": "Walmart Supercenter",
        "brand": "Walmart",
        "type": "node",
        "address": {
            "streetAddress": "10655 Folsom Boulevard",
            "city": "Rancho Cordova",
            "state": "CA",
            "zip": "95670"
        },
        "website": "https://www.walmart.com/store/2457-rancho-cordova-ca",
        "phone": "+1 916-361-0296",
        "latitude": 38.5961282,
        "longitude": -121.2918143
    },
    {
        "name": "Walmart Supercenter",
        "brand": "Walmart",
        "type": "node",
        "address": {
            "streetAddress": "1419 North Country Club Road",
            "city": "Ada",
            "state": "OK",
            "zip": "74820"
        },
        "website": "https://www.walmart.com/store/231-ada-ok",
        "phone": "+1 580-332-2232",
        "latitude": 34.789127,
        "longitude": -96.65614
    },
    {
        "name": "Walmart Supercenter",
        "brand": "Walmart",
        "type": "node",
        "address": {
            "streetAddress": "1275 North Azusa Avenue",
            "city": "Covina",
            "state": "CA",
            "zip": "91722"
        },
        "website": "https://www.walmart.com/store/2292-covina-ca",
        "phone": "+1 626-339-4161",
        "latitude": 34.102622,
        "longitude": -117.909601
    },
    {
        "name": "Walmart Supercenter",
        "brand": "Walmart",
        "type": "node",
        "address": {
            "streetAddress": "1200 Garth Brooks Boulevard",
            "city": "Yukon",
            "state": "OK",
            "zip": "73099"
        },
        "website": "https://www.walmart.com/store/221-yukon-ok",
        "phone": "+1 405-350-1900",
        "latitude": 35.4903985,
        "longitude": -97.7636666
    },
    {
        "name": "Walmart Supercenter",
        "brand": "Walmart",
        "type": "node",
        "address": {
            "streetAddress": "8118 Perry Hills Court",
            "city": "Nottingham",
            "state": "MD",
            "zip": "21236"
        },
        "website": "https://www.walmart.com/store/2045-nottingham-md",
        "phone": "+1 410-882-9815",
        "latitude": 39.379153,
        "longitude": -76.510068
    },
    {
        "name": "Walmart Supercenter",
        "brand": "Walmart",
        "type": "node",
        "address": {
            "streetAddress": "2420 Supercenter Drive Northeast",
            "city": "Kannapolis",
            "state": "NC",
            "zip": "28083"
        },
        "website": "https://www.walmart.com/store/2005-kannapolis-nc",
        "phone": "+1 704-792-9800",
        "latitude": 35.46261,
        "longitude": -80.594712
    },
    {
        "name": "Walmart Supercenter",
        "brand": "Walmart",
        "type": "node",
        "address": {
            "streetAddress": "400 Three Springs Drive",
            "city": "Weirton",
            "state": "WV",
            "zip": "26062"
        },
        "website": "https://www.walmart.com/store/1948-weirton-wv",
        "phone": "+1 304-723-3445",
        "latitude": 40.390234,
        "longitude": -80.549497
    },
    {
        "name": "Walmart Supercenter",
        "brand": "Walmart",
        "type": "node",
        "address": {
            "streetAddress": "1730 Lincoln Way East",
            "city": "Chambersburg",
            "state": "PA",
            "zip": "17202"
        },
        "website": "https://www.walmart.com/store/1850/chambersburg-pa",
        "phone": "+1 717-264-2300",
        "latitude": 39.920766,
        "longitude": -77.60692
    },
    {
        "name": "Walmart Supercenter",
        "brand": "Walmart",
        "type": "node",
        "address": {
            "streetAddress": "2875 Sugar Hill Road",
            "city": "Marion",
            "state": "NC",
            "zip": "28752"
        },
        "website": "https://www.walmart.com/store/1694-marion-nc",
        "phone": "+1 828-652-1481",
        "latitude": 35.647439,
        "longitude": -82.030359
    },
    {
        "name": "Walmart Supercenter",
        "brand": "Walmart",
        "type": "node",
        "address": {
            "streetAddress": "1116 Crossroads Drive",
            "city": "Statesville",
            "state": "NC",
            "zip": "28625"
        },
        "website": "https://www.walmart.com/store/1662-statesville-nc",
        "phone": "+1 704-871-9833",
        "latitude": 35.811119,
        "longitude": -80.869157
    },
    {
        "name": "Walmart Supercenter",
        "brand": "Walmart",
        "type": "node",
        "address": {
            "streetAddress": "2601 Fashion Place",
            "city": "Bakersfield",
            "state": "CA",
            "zip": "93306"
        },
        "website": "https://www.walmart.com/store/1624-bakersfield-ca",
        "phone": "+1 661-873-7120",
        "latitude": 35.391531,
        "longitude": -118.960829
    },
    {
        "name": "Walmart Supercenter",
        "brand": "Walmart",
        "type": "node",
        "address": {
            "streetAddress": "2578 Douglas Avenue",
            "city": "Brewton",
            "state": "AL",
            "zip": "36426"
        },
        "website": "https://www.walmart.com/store/1620-brewton-al",
        "phone": "+1 251-867-4680",
        "latitude": 31.148441,
        "longitude": -87.063735
    },
    {
        "name": "Walmart Supercenter",
        "brand": "Walmart",
        "type": "node",
        "address": {
            "streetAddress": "2628 South Main Street",
            "city": "High Point",
            "state": "NC",
            "zip": "27263"
        },
        "website": "https://www.walmart.com/store/1613-high-point-nc",
        "phone": "+1 336-869-9633",
        "latitude": 35.925361,
        "longitude": -79.988961
    },
    {
        "name": "Walmart Supercenter",
        "brand": "Walmart",
        "type": "node",
        "address": {
            "streetAddress": "5851 Northwest 177th Street",
            "city": "Hialeah",
            "state": "FL",
            "zip": "33015"
        },
        "website": "https://www.walmart.com/store/1590-hialeah-fl",
        "phone": "+1 305-558-6069",
        "latitude": 25.935789,
        "longitude": -80.29576
    },
    {
        "name": "Walmart Supercenter",
        "brand": "Walmart",
        "type": "node",
        "address": {
            "streetAddress": "6225 Colony Street",
            "city": "Bakersfield",
            "state": "CA",
            "zip": "93307"
        },
        "website": "https://www.walmart.com/store/1574-bakersfield-ca",
        "phone": "+1 661-398-7297",
        "latitude": 35.298796,
        "longitude": -119.029215
    },
    {
        "name": "Walmart Supercenter",
        "brand": "Walmart",
        "type": "node",
        "address": {
            "streetAddress": "10237 Bay Pines Boulevard",
            "city": "Saint Petersburg",
            "state": "FL",
            "zip": "33708"
        },
        "website": "https://www.walmart.com/store/1536-st-petersburg-fl",
        "phone": "+1 727-347-1188",
        "latitude": 27.8158476,
        "longitude": -82.7813795
    },
    {
        "name": "Walmart Supercenter",
        "brand": "Walmart",
        "type": "node",
        "address": {
            "streetAddress": "5001 North Federal Highway",
            "city": "Pompano Beach",
            "state": "FL",
            "zip": "33064"
        },
        "website": "https://www.walmart.com/store/1517/pompano-beach-fl",
        "phone": "+1 954-784-0220",
        "latitude": 26.293245,
        "longitude": -80.09593
    },
    {
        "name": "Walmart Supercenter",
        "brand": "Walmart",
        "type": "node",
        "address": {
            "streetAddress": "209 Lakeshore Parkway",
            "city": "Homewood",
            "state": "AL",
            "zip": "35209"
        },
        "website": "https://www.walmart.com/store/1481-homewood-al",
        "phone": "+1 205-945-8692",
        "latitude": 33.4471,
        "longitude": -86.821
    },
    {
        "name": "Walmart Supercenter",
        "brand": "Walmart",
        "type": "node",
        "address": {
            "streetAddress": "501 Willow Lane",
            "city": "Greenville",
            "state": "AL",
            "zip": "36037"
        },
        "website": "https://www.walmart.com/store/1462-greenville-al",
        "phone": "+1-334-382-2655",
        "latitude": 31.849507,
        "longitude": -86.647223
    },
    {
        "name": "Walmart Supercenter",
        "brand": "Walmart",
        "type": "node",
        "address": {
            "streetAddress": "6294 Forest Hill Boulevard",
            "city": "Greenacres",
            "state": "FL",
            "zip": "33415"
        },
        "website": "https://www.walmart.com/store/1436-greenacres-fl",
        "phone": "+1 561-966-3101",
        "latitude": 26.64949,
        "longitude": -80.142537
    },
    {
        "name": "Walmart Supercenter",
        "brand": "Walmart",
        "type": "node",
        "address": {
            "streetAddress": "3000 East Franklin Boulevard",
            "city": "Gastonia",
            "state": "NC",
            "zip": "28056"
        },
        "website": "https://www.walmart.com/store/1385-gastonia-nc",
        "phone": "+1 704-867-2440",
        "latitude": 35.262364,
        "longitude": -81.124124
    },
    {
        "name": "Walmart Supercenter",
        "brand": "Walmart",
        "type": "node",
        "address": {
            "streetAddress": "2840 Highway 95",
            "city": "Bullhead City",
            "state": "AZ",
            "zip": "86442"
        },
        "website": "https://www.walmart.com/store/1370-bullhead-city-az",
        "phone": "+1 928-758-7222",
        "latitude": 35.082534,
        "longitude": -114.5943
    },
    {
        "name": "Walmart Supercenter",
        "brand": "Walmart",
        "type": "node",
        "address": {
            "streetAddress": "5401 Fairington Road",
            "city": "Lithonia",
            "state": "GA",
            "zip": "30038"
        },
        "website": "https://www.walmart.com/store/1340-lithonia-ga",
        "phone": "+1 770-593-3540",
        "latitude": 33.700533,
        "longitude": -84.166977
    },
    {
        "name": "Walmart Supercenter",
        "brand": "Walmart",
        "type": "node",
        "address": {
            "streetAddress": "1299 North Brightleaf Boulevard",
            "city": "Smithfield",
            "state": "NC",
            "zip": "27577"
        },
        "website": "https://www.walmart.com/store/1321-smithfield-nc",
        "phone": "+1 919-989-6455",
        "latitude": 35.5232155,
        "longitude": -78.3092371
    },
    {
        "name": "Walmart Supercenter",
        "brand": "Walmart",
        "type": "node",
        "address": {
            "streetAddress": "901 US Highway 401 South",
            "city": "Laurinburg",
            "state": "NC",
            "zip": "28352"
        },
        "website": "https://www.walmart.com/store/1255-laurinburg-nc",
        "phone": "+1 910-277-7770",
        "latitude": 34.761765,
        "longitude": -79.484374
    },
    {
        "name": "Walmart Supercenter",
        "brand": "Walmart",
        "type": "node",
        "address": {
            "streetAddress": "250 Highlands Square Drive",
            "city": "Hendersonville",
            "state": "NC",
            "zip": "28792"
        },
        "website": "https://www.walmart.com/store/1242-hendersonville-nc",
        "phone": "+1 828-696-8285",
        "latitude": 35.34947,
        "longitude": -82.437565
    },
    {
        "name": "Walmart Supercenter",
        "brand": "Walmart",
        "type": "node",
        "address": {
            "streetAddress": "899 Blanding Boulevard",
            "city": "Orange Park",
            "state": "FL",
            "zip": "32065"
        },
        "website": "https://www.walmart.com/store/1225-orange-park-fl",
        "phone": "+1 904-272-0036",
        "latitude": 30.137709,
        "longitude": -81.768837
    },
    {
        "name": "Walmart Supercenter",
        "brand": "Walmart",
        "type": "node",
        "address": {
            "streetAddress": "12100 Lem Turner Road",
            "city": "Jacksonville",
            "state": "FL",
            "zip": "32218"
        },
        "website": "https://www.walmart.com/store/1219-jacksonville-fl",
        "phone": "+1 904-764-2855",
        "latitude": 30.4503575,
        "longitude": -81.7066673
    },
    {
        "name": "Walmart Supercenter",
        "brand": "Walmart",
        "type": "node",
        "address": {
            "streetAddress": "273 Commons Drive",
            "city": "Franklin",
            "state": "NC",
            "zip": "28734"
        },
        "website": "https://www.walmart.com/store/1217-franklin-nc",
        "phone": "+1 828-524-9111",
        "latitude": 35.1663604,
        "longitude": -83.3649369
    },
    {
        "name": "Walmart Supercenter",
        "brand": "Walmart",
        "type": "node",
        "address": {
            "streetAddress": "4928 State Road 674",
            "city": "Wimauma",
            "state": "FL",
            "zip": "33598"
        },
        "website": "https://www.walmart.com/store/1203-wimauma-fl",
        "phone": "+1 813-633-1467",
        "latitude": 27.715137,
        "longitude": -82.332629
    },
    {
        "name": "Walmart Supercenter",
        "brand": "Walmart",
        "type": "node",
        "address": {
            "streetAddress": "901 Nc Highway 16 South",
            "city": "Taylorsville",
            "state": "NC",
            "zip": "28681"
        },
        "website": "https://www.walmart.com/store/1131-taylorsville-nc",
        "phone": "+1 828-632-4176",
        "latitude": 35.908919,
        "longitude": -81.175949
    },
    {
        "name": "Walmart Supercenter",
        "brand": "Walmart",
        "type": "node",
        "address": {
            "streetAddress": "2001 South 1st Street",
            "city": "Chickasha",
            "state": "OK",
            "zip": "73018"
        },
        "website": "https://www.walmart.com/store/113-chickasha-ok",
        "phone": "+1 405-224-1867",
        "latitude": 35.031027,
        "longitude": -97.931081
    },
    {
        "name": "Walmart Supercenter",
        "brand": "Walmart",
        "type": "node",
        "address": {
            "streetAddress": "4283 Carter Street",
            "city": "Vidalia",
            "state": "LA",
            "zip": "71373"
        },
        "website": "https://www.walmart.com/store/1106-vidalia-la",
        "phone": "+1 318-336-8996",
        "latitude": 31.577418,
        "longitude": -91.462452
    },
    {
        "name": "Walmart Supercenter",
        "brand": "Walmart",
        "type": "node",
        "address": {
            "streetAddress": "10991 San Jose Boulevard",
            "city": "Jacksonville",
            "state": "FL",
            "zip": "32223"
        },
        "website": "https://www.walmart.com/store/1082-jacksonville-fl",
        "phone": "+1 904-260-4402",
        "latitude": 30.177358,
        "longitude": -81.625278
    },
    {
        "name": "Walmart Supercenter",
        "brand": "Walmart",
        "type": "node",
        "address": {
            "streetAddress": "2008 West Grant Avenue",
            "city": "Pauls Valley",
            "state": "OK",
            "zip": "73075"
        },
        "website": "https://www.walmart.com/store/1043-pauls-valley-ok",
        "phone": "+1 405-238-7353",
        "latitude": 34.736602,
        "longitude": -97.248862
    },
    {
        "name": "Walmart Supercenter",
        "brand": "Walmart",
        "type": "node",
        "address": {
            "streetAddress": "414 South Main Street",
            "city": "Swainsboro",
            "state": "GA",
            "zip": "30401"
        },
        "website": "https://www.walmart.com/store/1024-swainsboro-ga",
        "phone": "+1 478-237-3318",
        "latitude": 32.588146,
        "longitude": -82.330518
    },
    {
        "name": "Walmart Supercenter",
        "brand": "Walmart",
        "type": "node",
        "address": {
            "streetAddress": "6800 US 34",
            "city": "Plano",
            "state": "IL",
            "zip": "60545"
        },
        "website": "https://www.walmart.com/store/1003-plano-il",
        "phone": "+1 630-552-1580",
        "latitude": 41.6533238,
        "longitude": -88.5638996
    },
    {
        "name": "Walmart Supercenter",
        "brand": "Walmart",
        "type": "node",
        "address": {
            "streetAddress": "2000 Orchard Road",
            "city": "Montgomery",
            "state": "IL",
            "zip": "60538"
        },
        "website": "https://www.walmart.com/store/4286-montgomery-il",
        "phone": "+1 630-844-0292",
        "latitude": 41.720529,
        "longitude": -88.3732539
    },
    {
        "name": "Walmart Supercenter",
        "brand": "Walmart",
        "type": "node",
        "address": {
            "streetAddress": "2300 Route 34",
            "city": "Oswego",
            "state": "IL",
            "zip": "60543"
        },
        "website": "https://www.walmart.com/store/3400-oswego-il",
        "phone": "+1 630-554-3014",
        "latitude": 41.7039364,
        "longitude": -88.3031611
    },
    {
        "name": "Walmart Supercenter",
        "brand": "Walmart",
        "type": "node",
        "address": {
            "streetAddress": "27931 Kelly Johnson Parkway",
            "city": "Santa Clarita",
            "state": "CA",
            "zip": "91355"
        },
        "website": "https://www.walmart.com/store/5162-santa-clarita-ca",
        "phone": "+1 661-294-5211",
        "latitude": 34.4440903,
        "longitude": -118.5763877
    },
    {
        "name": "Walmart Supercenter",
        "brand": "Walmart",
        "type": "node",
        "address": {
            "streetAddress": "141 Springfield Road",
            "city": "Westfield",
            "state": "MA",
            "zip": "01085"
        },
        "website": "https://www.walmart.com/store/2174-westfield-ma",
        "phone": "+1-413-572-0400",
        "latitude": 42.1081082,
        "longitude": -72.7080357
    },
    {
        "name": "Walmart Supercenter",
        "brand": "Walmart",
        "type": "node",
        "address": {
            "streetAddress": "301 South State Road 7",
            "city": "Hollywood",
            "state": "FL",
            "zip": "33023"
        },
        "website": "https://www.walmart.com/store/3163-hollywood-fl",
        "phone": "+1 754-260-6713",
        "latitude": 26.0076651,
        "longitude": -80.2048556
    },
    {
        "name": "Walmart Supercenter",
        "brand": "Walmart",
        "type": "node",
        "address": {
            "streetAddress": "11930 Narcoossee Road",
            "city": "Orlando",
            "state": "FL",
            "zip": "32832"
        },
        "website": "https://www.walmart.com/store/4365-orlando-fl",
        "phone": "+1 407-204-2039",
        "latitude": 28.3899768,
        "longitude": -81.2480961
    },
    {
        "name": "Walmart Supercenter",
        "brand": "Walmart",
        "type": "node",
        "address": {
            "streetAddress": "638 Quequechan Street",
            "city": "Fall River",
            "state": "MA",
            "zip": "02721"
        },
        "website": "https://www.walmart.com/store/3560-fall-river-ma",
        "phone": "+1 508-730-2677",
        "latitude": 41.6860346,
        "longitude": -71.1416599
    },
    {
        "name": "Walmart Supercenter",
        "brand": "Walmart",
        "type": "node",
        "address": {
            "streetAddress": "5511 Murfreesboro Road",
            "city": "La Vergne",
            "state": "TN",
            "zip": "37086"
        },
        "website": "https://www.walmart.com/store/7020-la-vergne-tn",
        "phone": "+1 615-984-0066",
        "latitude": 36.0145629,
        "longitude": -86.5457171
    },
    {
        "name": "Walmart Supercenter",
        "brand": "Walmart",
        "type": "node",
        "address": {
            "streetAddress": "12751 Washington Township Boulevard",
            "city": "Waynesboro",
            "state": "PA",
            "zip": "17268"
        },
        "website": "https://www.walmart.com/store/3633-waynesboro-pa",
        "phone": "+1 717-762-2282",
        "latitude": 39.7421921,
        "longitude": -77.5280841
    },
    {
        "name": "Walmart Supercenter",
        "brand": "Walmart",
        "type": "node",
        "address": {
            "streetAddress": "1000 East Pulaski Highway",
            "city": "Elkton",
            "state": "MD",
            "zip": "21921"
        },
        "website": "https://www.walmart.com/store/1860-elkton-md",
        "phone": "+1 410-398-1070",
        "latitude": 39.603511,
        "longitude": -75.7923776
    },
    {
        "name": "Walmart Supercenter",
        "brand": "Walmart",
        "type": "node",
        "address": {
            "streetAddress": "1500 Economy Way",
            "city": "Baden",
            "state": "PA",
            "zip": "15005"
        },
        "website": "https://www.walmart.com/store/4643-baden-pa",
        "phone": "+1 724-390-9016",
        "latitude": 40.6581949,
        "longitude": -80.2265815
    },
    {
        "name": "Walmart Supercenter",
        "brand": "Walmart",
        "type": "node",
        "address": {
            "streetAddress": "2190 Gilmer Avenue",
            "city": "Tallassee",
            "state": "AL",
            "zip": "36078"
        },
        "website": "https://www.walmart.com/store/1057-tallassee-al",
        "phone": "+1 334-283-6841",
        "latitude": 32.5661121,
        "longitude": -85.9314677
    },
    {
        "name": "Walmart Supercenter",
        "brand": "Walmart",
        "type": "node",
        "address": {
            "streetAddress": "1 Frankel Way",
            "city": "Cockeysville",
            "state": "MD",
            "zip": "21030"
        },
        "website": "https://www.walmart.com/store/2577-cockeysville-md",
        "phone": "+1 410-628-0980",
        "latitude": 39.470235,
        "longitude": -76.6426526
    },
    {
        "name": "Walmart Supercenter",
        "brand": "Walmart",
        "type": "node",
        "address": {
            "streetAddress": "470 Route 211 East",
            "city": "Middletown",
            "state": "NY",
            "zip": "10940"
        },
        "website": "https://www.walmart.com/store/1959-middletown-ny",
        "phone": "+1 845-342-0222",
        "latitude": 41.4553885,
        "longitude": -74.3787467
    },
    {
        "name": "Walmart Supercenter",
        "brand": "Walmart",
        "type": "node",
        "address": {
            "streetAddress": "3274 Inner Perimeter Road",
            "city": "Valdosta",
            "state": "GA",
            "zip": "31602"
        },
        "website": "https://www.walmart.com/store/2615-valdosta-ga/",
        "phone": "+1-229-253-0312",
        "latitude": 30.8807657,
        "longitude": -83.2882355
    },
    {
        "name": "Walmart Supercenter",
        "brand": "Walmart",
        "type": "node",
        "address": {
            "streetAddress": "25108 Market Place Drive",
            "city": "Katy",
            "state": "TX",
            "zip": "77494"
        },
        "website": "https://www.walmart.com/store/3226-katy-tx",
        "phone": "+1 281-644-6404",
        "latitude": 29.7835112,
        "longitude": -95.8040801
    },
    {
        "name": "Walmart Supercenter",
        "brand": "Walmart",
        "type": "node",
        "address": {
            "streetAddress": "5405 South Rice Avenue",
            "city": "Houston",
            "state": "TX",
            "zip": "77081"
        },
        "website": "https://www.walmart.com/store/3584-houston-tx",
        "phone": "+1 713-860-9242",
        "latitude": 29.7230274,
        "longitude": -95.4652858
    },
    {
        "name": "Walmart Supercenter",
        "brand": "Walmart",
        "type": "way",
        "address": {
            "streetAddress": "1401 Galaxy Drive Northeast",
            "city": "Lacey",
            "state": "WA",
            "zip": "98516"
        },
        "website": "https://www.walmart.com/store/3531-lacey-wa",
        "phone": "+1-360-456-6550",
        "latitude": 47.060467,
        "longitude": -122.7738182
    },
    {
        "name": "Walmart Supercenter",
        "brand": "Walmart",
        "type": "way",
        "address": {
            "streetAddress": "1205 South Main Street",
            "city": "Manteca",
            "state": "CA",
            "zip": "95337"
        },
        "website": "https://www.walmart.com/store/1840-manteca-ca",
        "phone": "+1 209-824-2000",
        "latitude": 37.7854883,
        "longitude": -121.2185965
    },
    {
        "name": "Walmart Supercenter",
        "brand": "Walmart",
        "type": "way",
        "address": {
            "streetAddress": "2111 Claude Bailey Parkway",
            "city": "Princeton",
            "state": "IL",
            "zip": "61356"
        },
        "website": "https://www.walmart.com/store/636-princeton-il",
        "phone": "+1 815-875-4521",
        "latitude": 41.3964984,
        "longitude": -89.4627023
    },
    {
        "name": "Walmart Supercenter",
        "brand": "Walmart",
        "type": "way",
        "address": {
            "streetAddress": "2600 McIngvale Road",
            "city": "Hernando",
            "state": "MS",
            "zip": "38632"
        },
        "website": "https://www.walmart.com/store/5419-hernando-ms",
        "phone": "+1 662-429-3456",
        "latitude": 34.8224347,
        "longitude": -89.9687297
    },
    {
        "name": "Walmart Supercenter",
        "brand": "Walmart",
        "type": "way",
        "address": {
            "streetAddress": "7950 Craft Goodman Frontage Road",
            "city": "Olive Branch",
            "state": "MS",
            "zip": "38654"
        },
        "website": "https://www.walmart.com/store/2846/olive-branch-ms",
        "phone": "+1 662-890-2500",
        "latitude": 34.9650183,
        "longitude": -89.8495639
    },
    {
        "name": "Walmart Supercenter",
        "brand": "Walmart",
        "type": "way",
        "address": {
            "streetAddress": "601 North Lincoln Road",
            "city": "Escanaba",
            "state": "MI",
            "zip": "49829"
        },
        "website": "https://www.walmart.com/store/2522-escanaba-mi",
        "phone": "+1 906-786-7717",
        "latitude": 45.7525106,
        "longitude": -87.0827236
    },
    {
        "name": "Walmart Supercenter",
        "brand": "Walmart",
        "type": "way",
        "address": {
            "streetAddress": "920 Highway 12",
            "city": "Baraboo",
            "state": "WI",
            "zip": "53913"
        },
        "website": "https://www.walmart.com/store/1396-baraboo-wi",
        "phone": "+1 608-356-1765",
        "latitude": 43.458512,
        "longitude": -89.7726065
    },
    {
        "name": "Walmart Supercenter",
        "brand": "Walmart",
        "type": "way",
        "address": {
            "streetAddress": "7250 Carson Boulevard",
            "city": "Long Beach",
            "state": "CA",
            "zip": "90808"
        },
        "website": "https://www.walmart.com/store/3477-long-beach-ca",
        "phone": "+1 562-425-5113",
        "latitude": 33.8293733,
        "longitude": -118.090624
    },
    {
        "name": "Walmart Supercenter",
        "brand": "Walmart",
        "type": "way",
        "address": {
            "streetAddress": "300 6th Avenue West",
            "city": "Monroe",
            "state": "WI",
            "zip": "53566"
        },
        "website": "https://www.walmart.com/store/802-monroe-wi",
        "phone": "+1 608-325-7701",
        "latitude": 42.6096934,
        "longitude": -89.6635353
    },
    {
        "name": "Walmart Supercenter",
        "brand": "Walmart",
        "type": "way",
        "address": {
            "streetAddress": "92 Plaza Lane",
            "city": "Oxford",
            "state": "AL",
            "zip": "36203"
        },
        "website": "https://www.walmart.com/store/809-oxford-al",
        "phone": "+1 256-835-4701",
        "latitude": 33.5989813,
        "longitude": -85.832309
    },
    {
        "name": "Walmart Supercenter",
        "brand": "Walmart",
        "type": "way",
        "address": {
            "streetAddress": "170 Cochrane Plaza",
            "city": "Morgan Hill",
            "state": "CA",
            "zip": "95037"
        },
        "website": "https://www.walmart.com/store/5766-morgan-hill-ca",
        "phone": "+1 408-779-8172",
        "latitude": 37.1492317,
        "longitude": -121.6552758
    },
    {
        "name": "Walmart Supercenter",
        "brand": "Walmart",
        "type": "way",
        "address": {
            "streetAddress": "1632 North 2000 West",
            "city": "Clinton",
            "state": "UT",
            "zip": "84015"
        },
        "website": "https://www.walmart.com/store/5234-clinton-ut",
        "phone": "+1 801-779-3165",
        "latitude": 41.1374235,
        "longitude": -112.0607476
    },
    {
        "name": "Walmart Supercenter",
        "brand": "Walmart",
        "type": "way",
        "address": {
            "streetAddress": "1455 East Lake Cook Road",
            "city": "Wheeling",
            "state": "IL",
            "zip": "60090"
        },
        "website": "https://www.walmart.com/store/1735-wheeling-il",
        "phone": "+1 847-537-5090",
        "latitude": 42.1525444,
        "longitude": -87.9527576
    },
    {
        "name": "Walmart Supercenter",
        "brand": "Walmart",
        "type": "way",
        "address": {
            "streetAddress": "6770 Westworth Boulevard",
            "city": "Westworth Village",
            "state": "TX",
            "zip": "76114"
        },
        "website": "https://www.walmart.com/store/940-westworth-village-tx",
        "phone": "+1 817-570-9538",
        "latitude": 32.7550401,
        "longitude": -97.4338785
    },
    {
        "name": "Walmart Supercenter",
        "brand": "Walmart",
        "type": "way",
        "address": {
            "streetAddress": "1355 Sandhill Road",
            "city": "Orem",
            "state": "UT",
            "zip": "84058"
        },
        "website": "https://www.walmart.com/store/1768-orem-ut",
        "phone": "+1 801-221-0600",
        "latitude": 40.2726589,
        "longitude": -111.7101277
    },
    {
        "name": "Walmart Supercenter",
        "brand": "Walmart",
        "type": "way",
        "address": {
            "streetAddress": "500 West New Circle Road",
            "city": "Lexington",
            "state": "KY",
            "zip": "40511"
        },
        "website": "https://www.walmart.com/store/2783-lexington-ky",
        "phone": "+1 859-381-9370",
        "latitude": 38.0699466,
        "longitude": -84.480423
    },
    {
        "name": "Walmart Supercenter",
        "brand": "Walmart",
        "type": "way",
        "address": {
            "streetAddress": "777 Story Road",
            "city": "San Jose",
            "state": "CA",
            "zip": "95122"
        },
        "website": "https://www.walmart.com/store/5435-san-jose-ca",
        "phone": "+1 408-885-1142",
        "latitude": 37.3310002,
        "longitude": -121.8604189
    },
    {
        "name": "Walmart Supercenter",
        "brand": "Walmart",
        "type": "way",
        "address": {
            "streetAddress": "3101 A Street",
            "city": "Anchorage",
            "state": "AK",
            "zip": "99503"
        },
        "website": "https://www.walmart.com/store/2070-anchorage-ak",
        "phone": "+1-907-563-5900",
        "latitude": 61.1923141,
        "longitude": -149.8796492
    },
    {
        "name": "Walmart Supercenter",
        "brand": "Walmart",
        "type": "way",
        "address": {
            "streetAddress": "4620 East Black Horse Pike",
            "city": "Mays Landing",
            "state": "NJ",
            "zip": "08330"
        },
        "website": "https://www.walmart.com/store/2108-mays-landing-nj",
        "phone": "+1 609-625-8200",
        "latitude": 39.4521021,
        "longitude": -74.6534424
    },
    {
        "name": "Walmart Supercenter",
        "brand": "Walmart",
        "type": "way",
        "address": {
            "streetAddress": "2151 Royal Avenue",
            "city": "Monona",
            "state": "WI",
            "zip": "53713"
        },
        "website": "https://www.walmart.com/store/3857-monona-wi",
        "phone": "+1 608-226-0913",
        "latitude": 43.0425189,
        "longitude": -89.3500884
    },
    {
        "name": "Walmart Supercenter",
        "brand": "Walmart",
        "type": "way",
        "address": {
            "streetAddress": "8924 34th Avenue Northeast",
            "city": "Marysville",
            "state": "WA",
            "zip": "98271"
        },
        "website": "https://www.walmart.com/store/2595-marysville-wa",
        "phone": "+1-360-657-1192",
        "latitude": 48.0788699,
        "longitude": -122.188591
    },
    {
        "name": "Walmart Supercenter",
        "brand": "Walmart",
        "type": "way",
        "address": {
            "streetAddress": "470 North Airport Road",
            "city": "Willows",
            "state": "CA",
            "zip": "95988"
        },
        "website": "https://www.walmart.com/store/2053-willows-ca",
        "phone": "+1 530-934-2054",
        "latitude": 39.5258307,
        "longitude": -122.2176589
    },
    {
        "name": "Walmart Supercenter",
        "brand": "Walmart",
        "type": "way",
        "address": {
            "streetAddress": "1286 Eighteen Mile Road",
            "city": "Central",
            "state": "SC",
            "zip": "29630"
        },
        "website": "https://www.walmart.com/store/3222-central-sc",
        "phone": "+1 864-639-2525",
        "latitude": 34.7056409,
        "longitude": -82.7623066
    },
    {
        "name": "Walmart Supercenter",
        "brand": "Walmart",
        "type": "way",
        "address": {
            "streetAddress": "1031 Ten Rod Road",
            "city": "North Kingstown",
            "state": "RI",
            "zip": "02852"
        },
        "website": "https://www.walmart.com/store/2261-north-kingstown-ri",
        "phone": "+1 401-294-0025",
        "latitude": 41.5858473,
        "longitude": -71.4913087
    },
    {
        "name": "Walmart Supercenter",
        "brand": "Walmart",
        "type": "way",
        "address": {
            "streetAddress": "201 Walton Way",
            "city": "Cedar Park",
            "state": "TX",
            "zip": "78613"
        },
        "website": "https://www.walmart.com/store/2991-cedar-park-tx",
        "phone": "+1 512-528-8746",
        "latitude": 30.5224542,
        "longitude": -97.8345161
    },
    {
        "name": "Walmart Supercenter",
        "brand": "Walmart",
        "type": "way",
        "address": {
            "streetAddress": "13201 North Ranch Road 620",
            "city": "Austin",
            "state": "TX",
            "zip": "78717"
        },
        "website": "https://www.walmart.com/store/1129-austin-tx",
        "phone": "+1 512-331-9924",
        "latitude": 30.4669989,
        "longitude": -97.7892489
    },
    {
        "name": "Walmart Supercenter",
        "brand": "Walmart",
        "type": "way",
        "address": {
            "streetAddress": "1521 North Cockrell Hill Road",
            "city": "Dallas",
            "state": "TX",
            "zip": "75211"
        },
        "website": "https://www.walmart.com/store/5147-dallas-tx",
        "phone": "+1 214-330-7249",
        "latitude": 32.7626739,
        "longitude": -96.8972356
    },
    {
        "name": "Walmart Supercenter",
        "brand": "Walmart",
        "type": "way",
        "address": {
            "streetAddress": "600 Showers Drive",
            "city": "Mountain View",
            "state": "CA",
            "zip": "94040"
        },
        "website": "https://www.walmart.com/store/2280-mountain-view-ca",
        "phone": "+1 650-917-0796",
        "latitude": 37.4008484,
        "longitude": -122.1096709
    },
    {
        "name": "Walmart Supercenter",
        "brand": "Walmart",
        "type": "way",
        "address": {
            "streetAddress": "1635 Market Place Boulevard",
            "city": "Irving",
            "state": "TX",
            "zip": "75063"
        },
        "website": "https://www.walmart.com/store/2649-irving-tx",
        "phone": "+1 214-574-4517",
        "latitude": 32.920656,
        "longitude": -96.9678195
    },
    {
        "name": "Walmart Supercenter",
        "brand": "Walmart",
        "type": "way",
        "address": {
            "streetAddress": "621 Uptown Boulevard",
            "city": "Cedar Hill",
            "state": "TX",
            "zip": "75104"
        },
        "website": "https://www.walmart.com/store/3285-cedar-hill-tx",
        "phone": "+1 469-272-7344",
        "latitude": 32.5973856,
        "longitude": -96.9469613
    },
    {
        "name": "Walmart Supercenter",
        "brand": "Walmart",
        "type": "way",
        "address": {
            "streetAddress": "4893 Lone Tree Way",
            "city": "Antioch",
            "state": "CA",
            "zip": "94531"
        },
        "website": "https://www.walmart.com/store/2697-antioch-ca",
        "phone": "+1 925-755-0900",
        "latitude": 37.963507,
        "longitude": -121.7617382
    },
    {
        "name": "Walmart Supercenter",
        "brand": "Walmart",
        "type": "way",
        "address": {
            "streetAddress": "199 West 5th Street",
            "city": "Douglas",
            "state": "AZ",
            "zip": "85607"
        },
        "website": "https://www.walmart.com/store/1846-douglas-az",
        "phone": "+1 520-364-1281",
        "latitude": 31.3382141,
        "longitude": -109.5655424
    },
    {
        "name": "Walmart Supercenter",
        "brand": "Walmart",
        "type": "way",
        "address": {
            "streetAddress": "9300 South Interstate 35",
            "city": "Austin",
            "state": "TX",
            "zip": "78748"
        },
        "website": "https://www.walmart.com/store/5317-austin-tx",
        "phone": "+1 512-292-6973",
        "latitude": 30.1651398,
        "longitude": -97.7905693
    },
    {
        "name": "Walmart Supercenter",
        "brand": "Walmart",
        "type": "way",
        "address": {
            "streetAddress": "3412 College Avenue",
            "city": "San Diego",
            "state": "CA",
            "zip": "92115"
        },
        "website": "https://www.walmart.com/store/2479-san-diego-ca",
        "phone": "+1 619-858-0071",
        "latitude": 32.7415918,
        "longitude": -117.053663
    },
    {
        "name": "Walmart Supercenter",
        "brand": "Walmart",
        "type": "way",
        "address": {
            "streetAddress": "5200 West Pointe Plaza",
            "city": "Columbus",
            "state": "OH",
            "zip": "43228"
        },
        "website": "https://www.walmart.com/store/2426-columbus-oh",
        "phone": "+1 614-876-7850",
        "latitude": 39.983375,
        "longitude": -83.145043
    },
    {
        "name": "Walmart Supercenter",
        "brand": "Walmart",
        "type": "way",
        "address": {
            "streetAddress": "235 East Dorset Drive",
            "city": "Dixon",
            "state": "CA",
            "zip": "95620"
        },
        "website": "https://www.walmart.com/store/5139-dixon-ca",
        "phone": "+1 707-693-6505",
        "latitude": 38.4719325,
        "longitude": -121.8202668
    },
    {
        "name": "Walmart Supercenter",
        "brand": "Walmart",
        "type": "way",
        "address": {
            "streetAddress": "1550 Skibo Road",
            "city": "Fayetteville",
            "state": "NC",
            "zip": "28303"
        },
        "website": "https://www.walmart.com/store/1238-fayetteville-nc",
        "phone": "+1 910-868-6434",
        "latitude": 35.0818042,
        "longitude": -78.9572598
    },
    {
        "name": "Walmart Supercenter",
        "brand": "Walmart",
        "type": "way",
        "address": {
            "streetAddress": "4855 Kietzke Lane",
            "city": "Reno",
            "state": "NV",
            "zip": "89509"
        },
        "website": "https://www.walmart.com/store/2189-reno-nv",
        "phone": "+1 775-829-8088",
        "latitude": 39.4806241,
        "longitude": -119.7988482
    },
    {
        "name": "Walmart Supercenter",
        "brand": "Walmart",
        "type": "way",
        "address": {
            "streetAddress": "2228 West 1700 South",
            "city": "Syracuse",
            "state": "UT",
            "zip": "84075"
        },
        "website": "https://www.walmart.com/store/3848-syracuse-ut",
        "phone": "+1 801-775-9688",
        "latitude": 41.0903867,
        "longitude": -112.0698374
    },